City_ID,City,Lat,Lng,Max Temp,Humidity,Cloudiness,Wind Speed,Country,Date,Current Description
0,Tuatapere,-46.1333,167.6833,34.32,91,9,3.67,NZ,2022-08-11 12:08:46,clear sky
1,Ushuaia,-54.8,-68.3,33.46,93,75,2.3,AR,2022-08-11 12:05:31,broken clouds
2,Altamira,-3.2033,-52.2064,81.34,61,63,3.87,BR,2022-08-11 12:08:46,broken clouds
3,Tiksi,71.6872,128.8694,47.26,81,100,5.53,RU,2022-08-11 12:08:46,overcast clouds
4,Busselton,-33.65,115.3333,53.83,79,26,5.37,AU,2022-08-11 12:08:47,scattered clouds
5,Port Alfred,-33.5906,26.891,64.18,78,99,3.0,ZA,2022-08-11 12:08:47,overcast clouds
6,Mar Del Plata,-38.0023,-57.5575,46.09,92,75,11.5,AR,2022-08-11 12:07:25,broken clouds
7,Pevek,69.7008,170.3133,39.47,93,60,7.58,RU,2022-08-11 12:08:48,broken clouds
8,Hithadhoo,-0.6,73.0833,83.03,71,18,6.69,MV,2022-08-11 12:08:48,few clouds
9,East London,-33.0153,27.9116,68.7,68,98,4.61,ZA,2022-08-11 12:05:47,overcast clouds
10,Hobart,-42.8794,147.3294,53.46,87,75,12.66,AU,2022-08-11 12:08:48,broken clouds
11,Barrow,71.2906,-156.7887,44.62,93,100,21.85,US,2022-08-11 12:08:49,mist
12,Punta Arenas,-53.15,-70.9167,28.42,93,0,5.75,CL,2022-08-11 12:08:49,clear sky
13,Neuquen,-38.9516,-68.0591,43.12,64,0,7.63,AR,2022-08-11 12:06:21,clear sky
14,Aguada De Pasajeros,22.385,-80.8508,75.74,90,58,5.57,CU,2022-08-11 12:08:50,broken clouds
15,Jamestown,42.097,-79.2353,67.51,74,0,5.75,US,2022-08-11 12:08:50,clear sky
16,Los Llanos De Aridane,28.6585,-17.9182,73.15,85,40,10.36,ES,2022-08-11 12:08:50,scattered clouds
17,Mataura,-46.1927,168.8643,29.55,97,7,2.73,NZ,2022-08-11 12:08:51,clear sky
18,Tuktoyaktuk,69.4541,-133.0374,47.82,83,100,12.44,CA,2022-08-11 12:08:51,overcast clouds
19,Coahuayana,18.7333,-103.6833,76.62,86,100,3.29,MX,2022-08-11 12:08:51,overcast clouds
20,Andrews,32.3187,-102.5457,78.06,61,0,0.0,US,2022-08-11 12:05:44,clear sky
21,Port-Gentil,-0.7193,8.7815,75.83,79,89,14.2,GA,2022-08-11 12:08:52,overcast clouds
22,Albany,42.6001,-73.9662,66.85,88,86,3.49,US,2022-08-11 12:05:22,overcast clouds
23,Camacha,33.0833,-16.3333,71.02,68,20,12.66,PT,2022-08-11 12:08:52,few clouds
24,Zeya,53.75,127.2667,55.44,92,81,3.15,RU,2022-08-11 12:08:53,broken clouds
25,Yellowknife,62.456,-114.3525,50.56,76,100,5.99,CA,2022-08-11 12:08:53,overcast clouds
26,Diamantino,-14.4086,-56.4461,61.45,42,26,6.24,BR,2022-08-11 12:08:22,scattered clouds
27,Bonfim,3.0833,-59.95,80.42,71,21,3.65,BR,2022-08-11 12:08:54,few clouds
28,Viransehir,37.2353,39.7631,99.66,23,0,10.74,TR,2022-08-11 12:08:54,clear sky
29,Dikson,73.5069,80.5464,42.3,99,100,10.8,RU,2022-08-11 12:08:54,overcast clouds
30,Sobolevo,54.4299,31.8996,73.58,49,11,9.69,RU,2022-08-11 12:08:55,few clouds
31,Sao Jose Da Coroa Grande,-8.8978,-35.1478,76.87,79,38,5.88,BR,2022-08-11 12:08:55,scattered clouds
32,Lavrentiya,65.5833,-171.0,40.5,97,59,1.79,RU,2022-08-11 12:08:56,broken clouds
33,Puerto Ayora,-0.7393,-90.3518,67.55,99,100,5.01,EC,2022-08-11 12:04:11,overcast clouds
34,Nikolskoye,59.7035,30.7861,77.88,36,94,11.07,RU,2022-08-11 12:08:56,overcast clouds
35,Airai,-8.9266,125.4092,61.02,95,98,2.8,TL,2022-08-11 12:08:56,overcast clouds
36,Horsham,51.064,-0.3272,93.11,31,0,12.66,GB,2022-08-11 12:08:57,clear sky
37,Severo-Kurilsk,50.6789,156.125,56.5,88,90,6.08,RU,2022-08-11 12:08:57,overcast clouds
38,Necochea,-38.5473,-58.7368,44.69,73,1,15.64,AR,2022-08-11 12:04:15,clear sky
39,Aklavik,68.2191,-135.0107,49.62,57,88,5.55,CA,2022-08-11 12:08:58,overcast clouds
40,Katsuura,35.1333,140.3,80.94,87,47,21.79,JP,2022-08-11 12:08:58,scattered clouds
41,Grand Gaube,-20.0064,57.6608,73.8,62,49,8.99,MU,2022-08-11 12:08:58,scattered clouds
42,Mahebourg,-20.4081,57.7,73.69,56,40,17.27,MU,2022-08-11 12:08:59,scattered clouds
43,Saint-Philippe,-21.3585,55.7679,75.22,71,59,14.88,RE,2022-08-11 12:08:59,broken clouds
44,Zvishavane,-20.3267,30.0665,79.36,22,0,7.23,ZW,2022-08-11 12:09:59,clear sky
45,Hambantota,6.1241,81.1185,91.74,52,20,23.02,LK,2022-08-11 12:06:16,few clouds
46,Kapaa,22.0752,-159.319,77.11,85,20,14.97,US,2022-08-11 12:10:00,few clouds
47,Hermanus,-34.4187,19.2345,64.8,65,98,15.66,ZA,2022-08-11 12:10:00,overcast clouds
48,Cape Town,-33.9258,18.4232,64.11,70,100,10.0,ZA,2022-08-11 12:10:00,overcast clouds
49,Tomatlan,19.9333,-105.25,73.04,91,100,3.22,MX,2022-08-11 12:10:01,overcast clouds
50,Qaanaaq,77.484,-69.3632,37.0,76,100,7.2,GL,2022-08-11 12:10:01,overcast clouds
51,Najran,17.4924,44.1277,99.82,14,44,17.02,SA,2022-08-11 12:10:01,scattered clouds
52,New Norfolk,-42.7826,147.0587,53.1,82,95,1.01,AU,2022-08-11 12:10:02,overcast clouds
53,Hamilton,39.1834,-84.5333,67.21,96,0,4.61,US,2022-08-11 12:10:02,clear sky
54,Avera,33.194,-82.5271,72.55,81,100,5.64,US,2022-08-11 12:10:02,overcast clouds
55,Lorengau,-2.0226,147.2712,81.0,75,55,2.21,PG,2022-08-11 12:10:05,broken clouds
56,Bredasdorp,-34.5322,20.0403,65.91,53,99,7.05,ZA,2022-08-11 12:06:32,overcast clouds
57,North Platte,41.1239,-100.7654,68.38,71,0,1.01,US,2022-08-11 12:10:06,clear sky
58,Khatanga,71.9667,102.5,46.49,54,100,7.54,RU,2022-08-11 12:10:07,overcast clouds
59,Talnakh,69.4865,88.3972,54.21,56,57,5.68,RU,2022-08-11 12:10:08,broken clouds
60,Green Valley,31.8543,-110.9937,76.44,75,95,3.96,US,2022-08-11 12:09:02,overcast clouds
61,Port Elizabeth,-33.918,25.5701,72.1,69,100,4.0,ZA,2022-08-11 12:10:09,overcast clouds
62,Chokurdakh,70.6333,147.9167,53.22,72,100,7.63,RU,2022-08-11 12:10:10,overcast clouds
63,Esperance,-33.8667,121.9,55.83,69,86,10.42,AU,2022-08-11 12:10:10,overcast clouds
64,Cidreira,-30.1811,-50.2056,56.19,80,24,5.5,BR,2022-08-11 12:10:10,few clouds
65,Vaini,-21.2,-175.2,72.0,85,95,16.26,TO,2022-08-11 12:10:11,light rain
66,Lodja,-3.4833,23.4333,105.15,12,88,1.86,CD,2022-08-11 12:10:11,overcast clouds
67,Touros,-5.1989,-35.4608,81.61,68,54,13.09,BR,2022-08-11 12:08:29,broken clouds
68,Rosarito,32.3333,-117.0333,68.95,75,10,7.99,MX,2022-08-11 12:10:12,clear sky
69,Hilo,19.7297,-155.09,81.28,93,75,5.75,US,2022-08-11 12:07:01,broken clouds
70,Tonj,7.2737,28.6822,75.51,82,97,3.6,SS,2022-08-11 12:10:12,overcast clouds
71,Clyde River,70.4692,-68.5914,35.83,100,100,8.05,CA,2022-08-11 12:10:12,mist
72,Comodoro Rivadavia,-45.8667,-67.5,48.06,57,0,3.44,AR,2022-08-11 12:05:26,clear sky
73,Tasiilaq,65.6145,-37.6368,39.36,71,88,1.16,GL,2022-08-11 12:10:13,overcast clouds
74,Chuy,-33.6971,-53.4616,52.12,89,12,2.44,UY,2022-08-11 12:10:13,few clouds
75,Lompoc,34.6391,-120.4579,59.52,98,100,5.75,US,2022-08-11 12:10:14,mist
76,Mocuba,-16.8392,36.9856,84.58,33,0,4.59,MZ,2022-08-11 12:10:14,clear sky
77,Saint-Pierre,-21.3393,55.4781,75.29,58,0,27.63,RE,2022-08-11 12:10:14,clear sky
78,Praia Da Vitoria,38.7333,-27.0667,74.75,81,71,7.43,PT,2022-08-11 12:10:15,broken clouds
79,Diego De Almagro,-26.3667,-70.05,54.72,43,80,0.36,CL,2022-08-11 12:10:15,broken clouds
80,Winder,33.9926,-83.7202,72.61,96,0,0.0,US,2022-08-11 12:10:15,clear sky
81,Port Lincoln,-34.7333,135.8667,54.34,72,56,22.77,AU,2022-08-11 12:10:15,broken clouds
82,Whitehorse,60.7161,-135.0538,47.17,100,100,4.61,CA,2022-08-11 12:10:16,mist
83,Marshall,34.3834,-86.3333,73.38,94,0,0.0,US,2022-08-11 12:05:30,clear sky
84,Korla,41.7597,86.1469,93.16,20,99,15.05,CN,2022-08-11 12:10:16,overcast clouds
85,Esil,51.9556,66.4042,82.0,35,54,8.97,KZ,2022-08-11 12:10:17,broken clouds
86,Victoria,22.2855,114.1577,80.33,92,43,5.99,HK,2022-08-11 12:07:25,scattered clouds
87,Cockburn Town,21.4612,-71.1419,80.94,76,10,15.55,TC,2022-08-11 12:10:17,clear sky
88,Rikitea,-23.1203,-134.9692,72.81,69,100,23.04,PF,2022-08-11 12:10:18,overcast clouds
89,Kuah,6.3265,99.8432,84.0,73,95,5.32,MY,2022-08-11 12:10:18,overcast clouds
90,Fortuna,40.5982,-124.1573,59.99,94,100,3.44,US,2022-08-11 12:10:18,overcast clouds
91,Ribeira Grande,38.5167,-28.7,75.6,73,20,5.75,PT,2022-08-11 12:11:19,few clouds
92,Mumford,5.2618,-0.759,76.82,80,98,14.63,GH,2022-08-11 12:11:19,overcast clouds
93,Myaundzha,63.0494,147.1858,52.12,94,100,2.59,RU,2022-08-11 12:11:20,overcast clouds
94,Kavieng,-2.5744,150.7967,81.41,78,72,9.15,PG,2022-08-11 12:11:20,broken clouds
95,Mount Gambier,-37.8333,140.7667,47.61,77,100,3.2,AU,2022-08-11 12:11:20,light rain
96,Santa Cruz,-17.8,-63.1667,53.06,71,0,3.44,BO,2022-08-11 12:11:21,clear sky
97,Faanui,-16.4833,-151.75,78.12,73,10,10.33,PF,2022-08-11 12:11:21,clear sky
98,Teresopolis,-22.4122,-42.9656,57.06,87,44,6.93,BR,2022-08-11 12:11:21,scattered clouds
99,Castro,-24.7911,-50.0119,49.24,85,51,8.77,BR,2022-08-11 12:11:22,broken clouds
100,Wilmington,34.2257,-77.9447,83.95,71,0,9.22,US,2022-08-11 12:08:05,clear sky
101,Greenville,35.6127,-77.3663,77.16,93,0,5.75,US,2022-08-11 12:10:51,clear sky
102,Kahului,20.8947,-156.47,78.84,74,0,13.8,US,2022-08-11 12:11:22,clear sky
103,Hasaki,35.7333,140.8333,82.8,87,36,23.71,JP,2022-08-11 12:11:23,scattered clouds
104,Atuona,-9.8,-139.0333,76.82,72,9,20.8,PF,2022-08-11 12:11:23,clear sky
105,Avarua,-21.2078,-159.775,71.65,83,40,6.91,CK,2022-08-11 12:11:23,scattered clouds
106,Souillac,-20.5167,57.5167,73.78,56,40,17.27,MU,2022-08-11 12:11:24,light rain
107,Alofi,-19.0595,-169.9187,77.23,70,28,13.85,NU,2022-08-11 12:11:24,scattered clouds
108,Nizhniy Odes,63.6445,54.856,67.51,40,51,5.06,RU,2022-08-11 12:11:24,broken clouds
109,Kieta,-6.2167,155.6333,78.66,84,100,3.87,PG,2022-08-11 12:11:25,light rain
110,Weihe,32.9952,105.3247,71.8,95,72,5.23,CN,2022-08-11 12:11:25,broken clouds
111,Matara,5.9485,80.5353,81.84,77,49,11.5,LK,2022-08-11 12:11:26,scattered clouds
112,Buraydah,26.326,43.975,111.54,11,6,14.81,SA,2022-08-11 12:11:26,clear sky
113,Bilma,18.6853,12.9164,105.3,8,39,7.02,NE,2022-08-11 12:11:26,scattered clouds
114,Jingdezhen,29.2947,117.2079,86.99,59,71,0.49,CN,2022-08-11 12:11:26,broken clouds
115,San Blas,21.5167,-105.2667,78.66,82,100,0.89,MX,2022-08-11 12:11:27,overcast clouds
116,Klaksvik,62.2266,-6.589,56.32,72,87,13.82,FO,2022-08-11 12:11:27,overcast clouds
117,Carnarvon,-24.8667,113.6333,66.07,31,0,13.73,AU,2022-08-11 12:07:49,clear sky
118,Bluff,-46.6,168.3333,36.86,84,7,6.15,NZ,2022-08-11 12:11:28,clear sky
119,Omsukchan,62.5333,155.8,50.74,97,100,5.3,RU,2022-08-11 12:11:28,light rain
120,Geraldton,-28.7667,114.6,50.41,87,0,6.91,AU,2022-08-11 12:11:28,clear sky
121,Barao De Melgaco,-16.1944,-55.9675,59.9,54,21,3.74,BR,2022-08-11 12:11:29,few clouds
122,Visby,57.6409,18.296,79.05,56,0,16.11,SE,2022-08-11 12:11:29,clear sky
123,Iqaluit,63.7506,-68.5145,40.05,82,37,2.8,CA,2022-08-11 12:11:29,scattered clouds
124,Tiarei,-17.5333,-149.3333,73.42,74,9,8.52,PF,2022-08-11 12:11:30,clear sky
125,Fairbanks,64.8378,-147.7164,43.61,88,0,5.75,US,2022-08-11 12:06:49,clear sky
126,Taoudenni,22.6783,-3.9836,109.83,8,2,4.29,ML,2022-08-11 12:11:30,clear sky
127,Ilulissat,69.2167,-51.1,42.82,87,75,2.3,GL,2022-08-11 12:11:30,light intensity drizzle
128,Ponta Do Sol,32.6667,-17.1,76.01,68,17,4.74,PT,2022-08-11 12:11:31,few clouds
129,Port Blair,11.6667,92.75,82.26,79,97,14.92,IN,2022-08-11 12:11:31,overcast clouds
130,San Cristobal,7.7669,-72.225,75.38,82,64,3.65,VE,2022-08-11 12:11:32,broken clouds
131,Kiama,-34.6833,150.8667,58.57,78,100,3.0,AU,2022-08-11 12:11:32,light rain
132,Upernavik,72.7868,-56.1549,41.18,79,99,6.38,GL,2022-08-11 12:11:32,overcast clouds
133,Sitka,57.0531,-135.33,57.09,88,40,0.0,US,2022-08-11 12:11:33,scattered clouds
134,Toora-Khem,52.4675,96.11,70.41,41,95,1.92,RU,2022-08-11 12:11:33,overcast clouds
135,Krasnoselkup,65.7,82.4667,59.63,47,88,4.81,RU,2022-08-11 12:11:34,overcast clouds
136,Lac Du Bonnet,50.2536,-96.0612,49.68,74,31,4.72,CA,2022-08-11 12:11:35,scattered clouds
137,Arraial Do Cabo,-22.9661,-42.0278,69.66,83,40,26.46,BR,2022-08-11 12:10:46,scattered clouds
138,Itaituba,-4.2761,-55.9836,81.43,49,97,0.74,BR,2022-08-11 12:12:35,overcast clouds
139,Rio Grande,-32.035,-52.0986,51.91,85,9,3.18,BR,2022-08-11 12:12:35,clear sky
140,Jiayuguan,39.8167,98.3,87.66,38,82,7.72,CN,2022-08-11 12:12:36,broken clouds
141,Torbay,47.6666,-52.7314,59.29,90,100,10.36,CA,2022-08-11 12:12:36,overcast clouds
142,Dumas,35.8656,-101.9732,66.34,77,0,6.91,US,2022-08-11 12:08:03,clear sky
143,La Ronge,55.1001,-105.2842,55.4,75,0,6.51,CA,2022-08-11 12:12:36,clear sky
144,Mandalgovi,45.7625,106.2708,65.68,65,100,17.87,MN,2022-08-11 12:12:37,overcast clouds
145,Lata,40.1629,-8.3327,89.19,25,1,6.62,PT,2022-08-11 12:12:38,clear sky
146,Camargo,27.6667,-105.1667,72.61,59,10,2.62,MX,2022-08-11 12:12:38,clear sky
147,Brae,60.3964,-1.353,56.17,93,100,13.85,GB,2022-08-11 12:12:38,light rain
148,Christchurch,-43.5333,172.6333,38.91,84,75,3.44,NZ,2022-08-11 12:12:24,broken clouds
149,Bandarbeyla,9.4942,50.8122,86.09,54,99,27.58,SO,2022-08-11 12:12:39,overcast clouds
150,Shingu,33.7333,135.9833,79.14,92,81,3.42,JP,2022-08-11 12:12:40,light rain
151,Bambous Virieux,-20.3428,57.7575,73.65,56,40,17.27,MU,2022-08-11 12:12:40,light rain
152,Estelle,29.8458,-90.1067,75.2,87,100,0.0,US,2022-08-11 12:12:40,overcast clouds
153,Baie-Comeau,49.2168,-68.1489,60.87,92,77,4.25,CA,2022-08-11 12:12:41,broken clouds
154,Pisco,-13.7,-76.2167,59.05,94,100,3.44,PE,2022-08-11 12:12:41,mist
155,Calama,-22.4667,-68.9333,53.89,6,0,8.86,CL,2022-08-11 12:12:41,clear sky
156,Takoradi,4.8845,-1.7554,78.67,74,95,12.93,GH,2022-08-11 12:12:42,overcast clouds
157,Luderitz,-26.6481,15.1594,67.86,46,77,11.5,NA,2022-08-11 12:12:42,broken clouds
158,Norman Wells,65.282,-126.8329,45.09,72,43,4.63,CA,2022-08-11 12:12:42,scattered clouds
159,Salinopolis,-0.6136,-47.3561,81.57,75,59,10.58,BR,2022-08-11 12:12:43,broken clouds
160,General Roca,-39.0333,-67.5833,44.15,60,0,9.22,AR,2022-08-11 12:12:43,clear sky
161,Hengshui,37.7322,115.7011,76.39,94,40,6.62,CN,2022-08-11 12:12:44,scattered clouds
162,Iracoubo,5.4802,-53.2011,78.62,85,47,4.94,GF,2022-08-11 12:12:44,scattered clouds
163,Smolenka,52.1352,113.4974,68.07,60,83,0.0,RU,2022-08-11 12:12:44,broken clouds
164,Butaritari,3.0707,172.7902,81.86,74,75,13.09,KI,2022-08-11 12:12:45,broken clouds
165,Diffa,13.3154,12.6113,89.42,48,100,13.53,NE,2022-08-11 12:12:45,overcast clouds
166,Kretinga,55.8758,21.2508,71.35,56,0,4.61,LT,2022-08-11 12:12:45,clear sky
167,Sao Joao Da Barra,-21.6403,-41.0511,73.49,38,67,11.48,BR,2022-08-11 12:12:46,broken clouds
168,Kasempa,-13.4584,25.8338,84.09,13,8,8.7,ZM,2022-08-11 12:12:46,clear sky
169,Flinders,-34.5833,150.8552,58.37,78,100,1.99,AU,2022-08-11 12:12:46,moderate rain
170,Paita,-5.0892,-81.1144,63.14,81,99,9.57,PE,2022-08-11 12:12:47,overcast clouds
171,Ca Mau,9.1769,105.15,79.27,86,100,5.23,VN,2022-08-11 12:11:57,heavy intensity rain
172,Karratha,-20.7377,116.8463,69.69,53,0,7.18,AU,2022-08-11 12:12:47,clear sky
173,Georgetown,5.4112,100.3354,85.95,79,20,10.36,MY,2022-08-11 12:07:47,few clouds
174,Okhotsk,59.3833,143.3,56.48,96,100,6.4,RU,2022-08-11 12:12:48,overcast clouds
175,Sahuaripa,29.05,-109.2333,70.54,92,99,2.19,MX,2022-08-11 12:12:48,overcast clouds
176,Callaguip,18.0714,120.4867,80.69,82,94,6.02,PH,2022-08-11 12:12:48,overcast clouds
177,Falkenberg,56.9055,12.4912,74.25,61,31,6.46,SE,2022-08-11 12:12:48,scattered clouds
178,Nchelenge,-9.3451,28.734,80.28,34,18,8.72,ZM,2022-08-11 12:12:49,few clouds
179,Sabang,5.8933,95.3214,83.16,73,92,21.56,ID,2022-08-11 12:12:49,overcast clouds
180,Salalah,17.0151,54.0924,75.29,100,100,4.61,OM,2022-08-11 12:12:49,light intensity drizzle
181,Myitkyina,25.3833,97.4,82.6,81,84,2.42,MM,2022-08-11 12:12:50,broken clouds
182,Kruisfontein,-34.0033,24.7314,69.89,44,100,2.44,ZA,2022-08-11 12:12:50,overcast clouds
183,Opuwo,-18.0607,13.84,87.22,8,0,8.66,NA,2022-08-11 12:12:51,clear sky
184,Provideniya,64.3833,-173.3,50.38,93,21,3.29,RU,2022-08-11 12:13:51,few clouds
185,Asau,46.4333,26.4,76.28,50,44,9.17,RO,2022-08-11 12:13:51,scattered clouds
186,Ostrovnoy,68.0531,39.5131,58.77,89,100,25.86,RU,2022-08-11 12:13:52,moderate rain
187,Grindavik,63.8424,-22.4338,52.27,71,75,11.5,IS,2022-08-11 12:13:52,broken clouds
188,Mukhen,48.1,136.1,61.29,94,100,6.55,RU,2022-08-11 12:12:17,overcast clouds
189,Asifabad,19.3667,79.2833,79.84,85,98,9.64,IN,2022-08-11 12:13:53,light rain
190,Burnie,-41.0667,145.9167,49.95,91,76,4.27,AU,2022-08-11 12:13:54,light rain
191,Arinos,-15.9169,-46.1056,68.34,31,90,5.79,BR,2022-08-11 12:13:54,overcast clouds
192,Berbera,10.4396,45.0143,91.89,50,58,10.29,SO,2022-08-11 12:13:55,broken clouds
193,Bethel,41.3712,-73.414,74.53,82,100,0.0,US,2022-08-11 12:13:55,light rain
194,Rio Gallegos,-51.6226,-69.2181,32.05,100,75,6.91,AR,2022-08-11 12:09:55,light snow
195,Gao,16.6362,1.637,99.9,28,19,6.96,ML,2022-08-11 12:13:55,few clouds
196,Mayo,38.8876,-76.5119,76.06,91,20,6.91,US,2022-08-11 12:13:56,few clouds
197,Bo Rai,12.5728,102.5371,81.73,98,100,5.86,TH,2022-08-11 12:13:22,heavy intensity rain
198,Cabra,37.4725,-4.4421,92.66,36,0,1.01,ES,2022-08-11 12:13:56,clear sky
199,Soe,-9.8607,124.284,66.02,91,63,4.32,ID,2022-08-11 12:09:19,broken clouds
200,Kodiak,57.79,-152.4072,54.91,94,100,4.61,US,2022-08-11 12:13:57,mist
201,Uzhur,55.3036,89.8339,74.03,54,41,5.39,RU,2022-08-11 12:13:58,scattered clouds
202,Anadyr,64.75,177.4833,57.49,82,100,2.53,RU,2022-08-11 12:11:48,overcast clouds
203,Awbari,26.5921,12.7805,98.35,14,0,10.31,LY,2022-08-11 12:13:58,clear sky
204,Tilichiki,60.4667,166.1,51.53,96,100,4.9,RU,2022-08-11 12:13:59,overcast clouds
205,Steamboat Springs,40.485,-106.8317,67.5,61,40,9.22,US,2022-08-11 12:11:24,scattered clouds
206,Stornoway,58.2093,-6.3865,57.92,94,75,17.27,GB,2022-08-11 12:13:59,moderate rain
207,Havre-Saint-Pierre,50.2334,-63.5986,60.87,91,66,8.32,CA,2022-08-11 12:13:59,broken clouds
208,Muros,42.7762,-9.0603,74.08,69,96,4.47,ES,2022-08-11 12:14:00,overcast clouds
209,Vavuniya,8.7514,80.4971,89.28,44,82,5.93,LK,2022-08-11 12:14:00,broken clouds
210,Santa Fe De La Laguna,19.6667,-101.55,54.55,95,100,1.39,MX,2022-08-11 12:14:01,overcast clouds
211,Dorchester,33.1002,-80.3831,77.07,99,0,0.0,US,2022-08-11 12:14:01,clear sky
212,Rawson,-43.3002,-65.1023,46.09,61,4,8.25,AR,2022-08-11 12:14:01,clear sky
213,Constitucion,-35.3333,-72.4167,45.81,81,0,4.52,CL,2022-08-11 12:14:02,clear sky
214,Quelimane,-17.8786,36.8883,80.47,48,1,9.44,MZ,2022-08-11 12:14:02,clear sky
215,Otane,-39.8833,176.6333,42.01,89,93,5.06,NZ,2022-08-11 12:14:03,overcast clouds
216,Saint George,37.1041,-113.5841,79.39,55,20,6.91,US,2022-08-11 12:11:01,few clouds
217,Staryy Nadym,65.6118,72.6842,67.23,46,68,10.25,RU,2022-08-11 12:14:03,broken clouds
218,Usak,38.5,29.4167,84.18,24,17,8.52,TR,2022-08-11 12:14:03,few clouds
219,Bandundu,-3.3167,17.3667,101.14,16,67,5.35,CD,2022-08-11 12:14:04,broken clouds
220,Kawalu,-7.3817,108.2082,72.81,98,73,2.55,ID,2022-08-11 12:14:04,broken clouds
221,Mount Isa,-20.7333,139.5,71.37,24,64,17.27,AU,2022-08-11 12:14:04,broken clouds
222,Seoul,37.5683,126.9778,76.39,92,48,1.81,KR,2022-08-11 12:13:59,scattered clouds
223,Forestville,38.8451,-76.875,74.3,94,75,11.5,US,2022-08-11 12:14:05,broken clouds
224,Yeniseysk,58.4497,92.1703,69.39,52,22,7.96,RU,2022-08-11 12:14:06,few clouds
225,Palmas,-10.2128,-48.3603,80.47,54,0,8.05,BR,2022-08-11 12:14:06,clear sky
226,Launceston,-41.45,147.1667,49.64,93,100,8.05,AU,2022-08-11 12:14:07,overcast clouds
227,Betioky,-23.7167,44.3833,85.91,18,0,6.22,MG,2022-08-11 12:14:08,clear sky
228,Baker City,44.7749,-117.8344,62.58,88,0,5.75,US,2022-08-11 12:11:21,clear sky
229,Mastic Beach,40.7668,-72.8521,76.28,93,75,1.99,US,2022-08-11 12:14:08,broken clouds
230,Yatou,37.15,122.3833,73.49,93,81,3.13,CN,2022-08-11 12:14:09,broken clouds
231,Harindanga,22.0383,88.3214,79.02,91,100,3.71,IN,2022-08-11 12:15:09,overcast clouds
232,Lagoa,39.05,-27.9833,71.08,73,11,4.7,PT,2022-08-11 12:15:09,few clouds
233,Bonavista,48.6499,-53.1147,56.8,74,90,8.25,CA,2022-08-11 12:15:10,overcast clouds
234,Notodden,59.5594,9.2585,87.51,39,0,5.75,NO,2022-08-11 12:15:10,clear sky
235,Mabay,6.0577,124.4666,80.02,81,36,2.98,PH,2022-08-11 12:15:11,scattered clouds
236,Collie,-33.3667,116.15,47.17,84,46,3.29,AU,2022-08-11 12:13:52,scattered clouds
237,Natal,-5.795,-35.2094,82.62,78,75,11.5,BR,2022-08-11 12:15:11,broken clouds
238,Chimbote,-9.0853,-78.5783,60.58,90,86,5.75,PE,2022-08-11 12:15:00,overcast clouds
239,Luebo,-5.35,21.4167,101.12,11,74,4.52,CD,2022-08-11 12:15:12,broken clouds
240,Alice Springs,-23.7,133.8833,44.15,87,96,2.3,AU,2022-08-11 12:15:12,overcast clouds
241,Sergeyevka,53.88,67.4158,81.73,41,17,9.08,KZ,2022-08-11 12:15:13,few clouds
242,Pochutla,15.7432,-96.4661,76.82,92,100,4.32,MX,2022-08-11 12:15:13,overcast clouds
243,Kiunga,-6.1219,141.2906,72.91,99,96,2.48,PG,2022-08-11 12:15:16,overcast clouds
244,Dalvik,65.9702,-18.5286,58.93,66,99,6.98,IS,2022-08-11 12:15:16,overcast clouds
245,Townsville,-19.25,146.8,67.08,77,100,6.91,AU,2022-08-11 12:15:17,overcast clouds
246,Olafsvik,64.8945,-23.7142,51.01,79,79,17.11,IS,2022-08-11 12:15:18,broken clouds
247,Veseloyarsk,51.2836,81.1056,75.51,48,45,5.21,RU,2022-08-11 12:15:19,moderate rain
248,Canberra,-35.2835,149.1281,47.55,96,75,8.05,AU,2022-08-11 12:10:29,moderate rain
249,North Myrtle Beach,33.816,-78.68,81.01,74,0,6.91,US,2022-08-11 12:15:20,clear sky
250,Tromso,69.6496,18.957,51.82,87,75,23.02,NO,2022-08-11 12:14:43,light intensity shower rain
251,Marawi,7.9986,124.2928,69.76,91,47,0.65,PH,2022-08-11 12:15:21,light rain
252,Tabas,33.5959,56.9244,98.31,10,0,21.7,IR,2022-08-11 12:15:22,clear sky
253,Aripuana,-9.1667,-60.6333,71.65,54,37,4.79,BR,2022-08-11 12:15:22,scattered clouds
254,Veraval,20.9,70.3667,81.03,91,100,22.95,IN,2022-08-11 12:13:49,overcast clouds
255,Ancud,-41.8697,-73.8203,48.02,87,100,12.91,CL,2022-08-11 12:15:23,light rain
256,Narsaq,60.9167,-46.05,52.02,80,85,1.95,GL,2022-08-11 12:15:23,overcast clouds
257,Nanortalik,60.1432,-45.2371,46.11,94,100,6.11,GL,2022-08-11 12:15:24,overcast clouds
258,Talitsa,56.8804,60.0213,72.14,76,100,10.63,RU,2022-08-11 12:15:24,light rain
259,Ankazobe,-18.3167,47.1167,68.05,40,4,16.64,MG,2022-08-11 12:15:25,clear sky
260,Sainte-Suzanne,-20.9061,55.6089,75.85,71,100,21.85,RE,2022-08-11 12:15:26,overcast clouds
261,Port Hardy,50.6996,-127.4199,59.18,94,100,2.3,CA,2022-08-11 12:15:26,overcast clouds
262,Russell,32.3502,-85.1999,72.97,94,75,0.0,US,2022-08-11 12:15:25,broken clouds
263,Olot,42.181,2.4901,94.24,17,25,3.15,ES,2022-08-11 12:15:27,scattered clouds
264,Luoyang,34.6836,112.4536,82.99,76,98,9.15,CN,2022-08-11 12:15:28,overcast clouds
265,Namibe,-15.1961,12.1522,69.62,70,57,9.71,AO,2022-08-11 12:15:28,broken clouds
266,Isangel,-19.55,169.2667,70.23,61,21,13.53,VU,2022-08-11 12:15:28,few clouds
267,Itupiranga,-5.1347,-49.3267,82.72,50,32,3.56,BR,2022-08-11 12:12:27,scattered clouds
268,Bengkulu,-3.8004,102.2655,79.66,83,33,2.64,ID,2022-08-11 12:12:42,scattered clouds
269,Poum,-20.2333,164.0167,70.48,59,4,12.68,NC,2022-08-11 12:15:29,clear sky
270,Shimoda,34.6667,138.95,78.1,91,78,10.6,JP,2022-08-11 12:15:29,broken clouds
271,Viedma,-40.8135,-62.9967,44.44,78,1,10.42,AR,2022-08-11 12:15:30,clear sky
272,Piacabucu,-10.4056,-36.4344,77.94,75,8,8.66,BR,2022-08-11 12:15:30,clear sky
273,Ylivieska,64.0833,24.55,69.89,61,100,12.48,FI,2022-08-11 12:15:31,overcast clouds
274,Teya,60.3778,92.6267,63.79,47,6,7.14,RU,2022-08-11 12:15:31,clear sky
275,Cabo San Lucas,22.8909,-109.9124,83.52,75,89,8.34,MX,2022-08-11 12:10:33,overcast clouds
276,Tambilil,5.9622,124.6697,79.7,84,48,1.79,PH,2022-08-11 12:15:32,scattered clouds
277,Ballina,-28.8667,153.5667,56.01,99,93,7.83,AU,2022-08-11 12:15:32,overcast clouds
278,Toowoomba,-27.55,151.9667,51.26,91,70,4.0,AU,2022-08-11 12:15:33,broken clouds
279,Moose Factory,51.2585,-80.6094,53.58,76,100,13.8,CA,2022-08-11 12:16:33,overcast clouds
280,Kalabo,-14.97,22.6814,89.17,10,34,7.05,ZM,2022-08-11 12:16:33,scattered clouds
281,Praia,14.9215,-23.5087,88.34,45,20,11.5,CV,2022-08-11 12:16:34,few clouds
282,Onda,39.9667,-0.25,95.16,53,0,12.71,ES,2022-08-11 12:16:34,clear sky
283,Grand-Lahou,5.1367,-5.0242,79.07,73,100,7.74,CI,2022-08-11 12:16:34,overcast clouds
284,Angoche,-16.2325,39.9086,79.86,52,25,11.36,MZ,2022-08-11 12:16:35,scattered clouds
285,Xichang,27.8964,102.2634,75.06,74,99,5.75,CN,2022-08-11 12:16:35,overcast clouds
286,Beringovskiy,63.05,179.3167,53.11,83,100,11.56,RU,2022-08-11 12:16:35,overcast clouds
287,Rokupr,8.6717,-12.395,75.69,94,99,6.29,SL,2022-08-11 12:16:36,moderate rain
288,Beloha,-25.1667,45.05,84.6,21,0,10.29,MG,2022-08-11 12:16:36,clear sky
289,Ketchikan,55.3422,-131.6461,63.07,72,0,11.5,US,2022-08-11 12:16:36,clear sky
290,Caborca,30.5838,-111.101,74.32,67,83,4.63,MX,2022-08-11 12:16:37,broken clouds
291,Wabana,47.6332,-52.9481,59.09,93,100,10.36,CA,2022-08-11 12:15:10,overcast clouds
292,Visnes,59.3556,5.2242,70.18,72,20,13.8,NO,2022-08-11 12:16:37,few clouds
293,Ndele,8.4109,20.6473,74.23,91,100,4.45,CF,2022-08-11 12:16:37,moderate rain
294,Longyearbyen,78.2186,15.6401,48.04,76,75,11.5,SJ,2022-08-11 12:16:38,broken clouds
295,Kapoeta,4.7717,33.5903,83.95,49,80,9.33,SS,2022-08-11 12:16:38,light rain
296,Jalu,29.0331,21.5482,95.94,15,0,9.95,LY,2022-08-11 12:16:38,clear sky
297,Vao,-22.6667,167.4833,67.71,58,6,19.42,NC,2022-08-11 12:16:38,clear sky
298,Manuk Mangkaw,4.8,119.85,84.22,72,39,7.76,PH,2022-08-11 12:16:39,scattered clouds
299,Yerbogachen,61.2767,108.0108,62.31,80,34,5.03,RU,2022-08-11 12:16:39,light rain
300,Qasigiannguit,68.8193,-51.1922,43.05,97,100,2.93,GL,2022-08-11 12:16:39,light rain
301,Namie,37.4833,141.0,83.71,85,80,11.48,JP,2022-08-11 12:16:40,broken clouds
302,Jimma,7.6667,36.8333,65.21,92,100,2.08,ET,2022-08-11 12:16:40,light rain
303,Acarau,-2.8856,-40.12,82.44,64,97,15.12,BR,2022-08-11 12:16:40,overcast clouds
304,Yarmouth,41.7057,-70.2286,73.96,87,100,4.61,US,2022-08-11 12:16:41,overcast clouds
305,Kungurtug,50.5994,97.5228,66.47,49,100,2.68,RU,2022-08-11 12:16:41,overcast clouds
306,San Angelo,31.4638,-100.437,74.53,87,20,1.01,US,2022-08-11 12:16:41,few clouds
307,Alamosa,37.4695,-105.87,48.18,93,0,4.61,US,2022-08-11 12:16:41,clear sky
308,Panaba,21.2833,-88.2667,75.29,92,89,4.09,MX,2022-08-11 12:16:42,overcast clouds
309,Cayenne,4.9333,-52.3333,84.24,79,20,0.0,GF,2022-08-11 12:16:42,few clouds
310,Bua Yai,15.5855,102.4259,78.46,80,100,12.95,TH,2022-08-11 12:16:42,overcast clouds
311,Taltal,-25.4,-70.4833,55.6,74,61,1.41,CL,2022-08-11 12:16:43,broken clouds
312,Biak,-0.9131,122.8766,76.71,89,73,2.37,ID,2022-08-11 12:16:43,broken clouds
313,Wau,7.7029,27.9953,86.18,57,96,7.65,SS,2022-08-11 12:16:43,light rain
314,Kaitangata,-46.2817,169.8464,33.58,93,17,4.56,NZ,2022-08-11 12:16:44,few clouds
315,Prince Rupert,54.3161,-130.3201,57.29,94,100,6.91,CA,2022-08-11 12:16:44,overcast clouds
316,Port Hedland,-20.3167,118.5667,73.45,31,40,11.5,AU,2022-08-11 12:16:44,scattered clouds
317,Riyadh,24.6877,46.7219,111.34,9,65,18.03,SA,2022-08-11 12:16:07,broken clouds
318,Jalpan,21.2333,-99.4833,65.7,93,65,2.08,MX,2022-08-11 12:16:45,broken clouds
319,Salvador,13.8333,-88.9167,69.04,97,83,2.59,SV,2022-08-11 12:16:45,broken clouds
320,Pervoye Maya,56.164,44.7196,74.44,40,0,3.2,RU,2022-08-11 12:16:45,clear sky
321,San Quintin,30.4833,-115.95,71.02,84,66,7.07,MX,2022-08-11 12:16:46,broken clouds
322,Bairiki,1.3292,172.9752,80.6,83,40,5.75,KI,2022-08-11 12:16:46,scattered clouds
323,Inhambane,-23.865,35.3833,77.81,54,0,10.92,MZ,2022-08-11 12:17:46,clear sky
324,Qadian,31.8178,75.3919,77.13,85,100,8.46,IN,2022-08-11 12:17:47,overcast clouds
325,Coquimbo,-29.9533,-71.3436,47.93,100,100,5.75,CL,2022-08-11 12:16:49,fog
326,Odienne,9.51,-7.5692,81.05,72,87,6.2,CI,2022-08-11 12:17:47,light rain
327,Saint-Augustin,51.226,-58.6502,63.39,73,23,11.72,CA,2022-08-11 12:17:48,few clouds
328,Victor Harbor,-35.5667,138.6167,53.01,89,89,3.0,AU,2022-08-11 12:17:48,light rain
329,Cairns,-16.9167,145.7667,70.11,78,100,9.22,AU,2022-08-11 12:17:48,overcast clouds
330,Komsomolskiy,40.4272,71.7189,88.52,25,20,11.5,UZ,2022-08-11 12:17:49,few clouds
331,Puerto Leguizamo,-0.1934,-74.7819,69.6,99,89,2.48,CO,2022-08-11 12:17:49,overcast clouds
332,Fukue,32.6881,128.8419,83.53,86,95,10.78,JP,2022-08-11 12:17:49,light rain
333,Nipawin,53.3668,-104.0009,53.64,100,20,8.05,CA,2022-08-11 12:17:50,few clouds
334,Saskylakh,71.9167,114.0833,46.83,63,100,10.96,RU,2022-08-11 12:17:50,overcast clouds
335,High Level,58.5169,-117.136,53.71,94,100,21.85,CA,2022-08-11 12:15:52,overcast clouds
336,Manoel Urbano,-8.8389,-69.2597,67.1,75,64,3.69,BR,2022-08-11 12:17:51,broken clouds
337,Samoylovka,51.184,43.7081,91.17,27,79,13.31,RU,2022-08-11 12:17:51,broken clouds
338,Merrill,45.1805,-89.6835,58.77,98,0,0.0,US,2022-08-11 12:17:51,clear sky
339,Otjimbingwe,-22.35,16.1333,89.37,8,0,7.9,NA,2022-08-11 12:17:52,clear sky
340,Mineros,-17.1167,-63.2333,54.32,46,0,2.19,BO,2022-08-11 12:17:52,clear sky
341,Aquidauana,-20.4711,-55.7872,56.79,70,0,6.82,BR,2022-08-11 12:17:52,clear sky
342,Coracora,-15.0333,-73.7833,49.39,46,5,3.69,PE,2022-08-11 12:17:53,clear sky
343,Vitim,59.4511,112.5578,57.65,90,90,3.89,RU,2022-08-11 12:17:53,overcast clouds
344,Mahon,39.8885,4.2658,90.16,40,20,10.36,ES,2022-08-11 12:17:53,few clouds
345,Susehri,40.1644,38.0867,88.29,27,10,8.68,TR,2022-08-11 12:17:54,clear sky
346,Nayoro,44.3506,142.4578,66.61,76,92,1.77,JP,2022-08-11 12:17:54,light rain
347,Hokitika,-42.7167,170.9667,40.39,67,5,6.2,NZ,2022-08-11 12:17:54,clear sky
348,Abu Samrah,35.3029,37.1841,93.54,32,0,17.43,SY,2022-08-11 12:17:55,clear sky
349,Varna,43.2167,27.9167,88.88,52,40,18.41,BG,2022-08-11 12:17:55,scattered clouds
350,Sao Filipe,14.8961,-24.4956,78.8,73,35,14.88,CV,2022-08-11 12:17:55,scattered clouds
351,Troitsko-Pechorsk,62.7084,56.1964,55.53,97,100,6.15,RU,2022-08-11 12:17:56,light rain
352,Cabedelo,-6.9811,-34.8339,77.67,80,74,6.29,BR,2022-08-11 12:17:56,broken clouds
353,Carauari,-4.8828,-66.8958,73.94,81,56,4.47,BR,2022-08-11 12:17:56,broken clouds
354,Ubata,-14.2139,-39.5228,78.06,57,27,3.4,BR,2022-08-11 12:17:57,scattered clouds
355,Anori,-3.7728,-61.6442,78.12,69,77,4.14,BR,2022-08-11 12:17:57,broken clouds
356,Asadabad,34.7824,48.1185,100.35,12,2,3.22,IR,2022-08-11 12:17:57,clear sky
357,Jiquipilas,16.6667,-93.65,68.7,99,100,1.07,MX,2022-08-11 12:17:58,overcast clouds
358,Penzance,50.1186,-5.5371,85.32,39,0,13.8,GB,2022-08-11 12:17:58,clear sky
359,Margate,51.3813,1.3862,85.1,69,2,5.99,GB,2022-08-11 12:17:58,clear sky
360,Byron Bay,-28.65,153.6167,55.94,82,93,7.36,AU,2022-08-11 12:17:59,overcast clouds
361,Kirakira,-10.4544,161.9205,78.35,88,99,8.34,SB,2022-08-11 12:17:59,overcast clouds
362,Mittagong,-34.45,150.45,51.19,92,100,2.55,AU,2022-08-11 12:17:59,light rain
363,Kaseda,31.4167,130.3167,82.89,78,97,4.5,JP,2022-08-11 12:17:14,overcast clouds
364,Tandil,-37.3217,-59.1332,40.68,85,0,9.57,AR,2022-08-11 12:18:00,clear sky
365,Mecca,21.4267,39.8261,105.91,28,67,11.12,SA,2022-08-11 12:18:00,broken clouds
366,Aswan,24.0934,32.907,107.87,14,38,13.38,EG,2022-08-11 12:18:00,scattered clouds
367,Flin Flon,54.7682,-101.865,58.84,82,20,8.05,CA,2022-08-11 12:15:15,few clouds
368,Samarai,-10.6167,150.6667,78.98,81,100,19.28,PG,2022-08-11 12:18:01,overcast clouds
369,Innisfail,-17.5333,146.0333,68.27,85,97,6.69,AU,2022-08-11 12:18:01,overcast clouds
370,Leeton,-34.5667,146.4,50.9,94,100,10.87,AU,2022-08-11 12:19:01,overcast clouds
371,Taicheng,38.731,113.228,72.48,86,3,2.3,CN,2022-08-11 12:19:02,clear sky
372,Portobelo,9.55,-79.65,76.96,89,98,4.85,PA,2022-08-11 12:19:02,overcast clouds
373,San Vicente,-26.6167,-54.1333,48.72,83,14,2.89,AR,2022-08-11 12:19:03,few clouds
374,San Jose,37.3394,-121.895,62.87,85,0,5.75,US,2022-08-11 12:16:35,clear sky
375,Sinnamary,5.3833,-52.95,78.37,87,58,5.57,GF,2022-08-11 12:19:03,broken clouds
376,Pudozh,61.8099,36.5345,71.17,47,97,12.59,RU,2022-08-11 12:19:04,overcast clouds
377,Pandan,14.0453,124.1694,81.12,80,49,2.53,PH,2022-08-11 12:19:04,scattered clouds
378,Puerto Madryn,-42.7692,-65.0385,48.18,52,1,7.43,AR,2022-08-11 12:19:04,clear sky
379,Chulman,56.8479,124.9104,51.31,98,100,3.42,RU,2022-08-11 12:19:05,light rain
380,Dzaoudzi,-12.7887,45.2699,80.49,61,0,12.66,YT,2022-08-11 12:19:05,clear sky
381,Micomeseng,2.1462,10.6164,75.6,76,98,4.85,GQ,2022-08-11 12:19:05,overcast clouds
382,Coruripe,-10.1256,-36.1756,77.11,79,1,8.08,BR,2022-08-11 12:16:07,clear sky
383,Aksu,41.1231,80.2644,87.04,29,81,9.04,CN,2022-08-11 12:16:34,broken clouds
384,Beisfjord,68.3751,17.5988,56.05,95,100,21.07,NO,2022-08-11 12:19:06,overcast clouds
385,Larsnes,62.2028,5.5773,61.45,95,100,10.58,NO,2022-08-11 12:19:06,light rain
386,Eydhafushi,5.1033,73.0708,81.88,81,54,11.83,MV,2022-08-11 12:19:07,broken clouds
387,Laguna,38.421,-121.4238,67.17,82,0,5.75,US,2022-08-11 12:19:07,clear sky
388,Anloga,5.7947,0.8973,77.43,77,100,15.1,GH,2022-08-11 12:19:08,overcast clouds
389,Dawei,14.0833,98.2,74.89,96,100,7.25,MM,2022-08-11 12:19:08,light rain
390,Puerto Del Rosario,28.5004,-13.8627,76.75,65,20,14.97,ES,2022-08-11 12:19:09,few clouds
391,Mikhaylovka,50.06,43.2379,92.7,22,78,18.39,RU,2022-08-11 12:19:09,broken clouds
392,Nerang,-27.9833,153.3333,61.59,93,99,2.3,AU,2022-08-11 12:19:09,overcast clouds
393,Broome,42.2506,-75.833,65.17,87,0,4.0,US,2022-08-11 12:19:10,clear sky
394,Tieling,42.2931,123.8414,70.59,86,4,1.83,CN,2022-08-11 12:15:52,clear sky
395,Gewane,10.1664,40.6453,84.78,51,100,8.28,ET,2022-08-11 12:19:10,overcast clouds
396,Mareeba,-17.0,145.4333,65.48,98,1,2.51,AU,2022-08-11 12:19:10,clear sky
397,Padang,-0.9492,100.3543,82.45,81,86,3.4,ID,2022-08-11 12:19:11,overcast clouds
398,Srednekolymsk,67.45,153.6833,64.02,79,99,2.89,RU,2022-08-11 12:19:11,moderate rain
399,Sakakah,29.9697,40.2064,107.17,15,0,8.3,SA,2022-08-11 12:19:11,clear sky
400,Gasa,31.5,34.4667,92.88,55,0,12.62,PS,2022-08-11 12:19:12,clear sky
401,Turinsk,58.0458,63.696,66.61,89,62,9.73,RU,2022-08-11 12:19:12,moderate rain
402,Osakarovka,50.565,72.5692,68.05,64,85,12.82,KZ,2022-08-11 12:19:12,overcast clouds
403,Tabou,4.423,-7.3528,80.19,68,78,9.71,CI,2022-08-11 12:19:13,broken clouds
404,Disna,55.568,28.1971,76.08,43,4,1.12,BY,2022-08-11 12:19:13,clear sky
405,Olga,43.7444,135.2892,67.33,94,75,3.98,RU,2022-08-11 12:19:13,broken clouds
406,Leningradskiy,69.3833,178.4167,47.25,84,75,3.2,RU,2022-08-11 12:19:14,broken clouds
407,La Trinitaria,16.1167,-92.05,58.86,94,100,2.3,MX,2022-08-11 12:19:14,overcast clouds
408,Zonguldak,41.25,31.8333,68.85,50,34,12.06,TR,2022-08-11 12:19:14,scattered clouds
409,Linqu,36.5156,118.5397,78.58,92,74,1.48,CN,2022-08-11 12:19:15,broken clouds
410,Namatanai,-3.6667,152.4333,79.29,81,73,7.11,PG,2022-08-11 12:19:15,broken clouds
411,Emba,48.8264,58.1442,89.49,21,0,13.4,KZ,2022-08-11 12:19:16,clear sky
412,Shalakusha,62.2247,40.2539,71.46,45,99,10.45,RU,2022-08-11 12:19:16,overcast clouds
413,Moron,-34.6534,-58.6198,52.97,78,0,6.82,AR,2022-08-11 12:19:16,clear sky
414,Mitzic,0.7821,11.549,81.05,57,100,5.41,GA,2022-08-11 12:19:17,overcast clouds
415,Fernley,39.608,-119.2518,68.22,30,26,3.0,US,2022-08-11 12:19:17,scattered clouds
416,Jibuti,11.5,42.5,89.67,39,94,16.15,DJ,2022-08-11 12:19:17,overcast clouds
417,Eureka,40.8021,-124.1637,60.26,89,46,1.01,US,2022-08-11 12:18:52,scattered clouds
418,Katherine,-14.4667,132.2667,80.92,36,13,6.91,AU,2022-08-11 12:27:33,few clouds
419,Marsa Matruh,31.3525,27.2453,85.24,51,0,15.35,EG,2022-08-11 12:27:34,clear sky
420,Verkhnevilyuysk,63.4453,120.3167,61.86,83,95,3.89,RU,2022-08-11 12:27:34,overcast clouds
421,Trincomalee,8.5711,81.2335,86.9,66,64,4.56,LK,2022-08-11 12:27:35,broken clouds
422,Key West,24.5557,-81.7826,87.8,73,0,13.8,US,2022-08-11 12:24:20,clear sky
423,Zhigansk,66.7697,123.3711,53.33,70,91,20.96,RU,2022-08-11 12:27:35,overcast clouds
424,Narathiwat,6.3333,101.75,79.54,87,79,3.58,TH,2022-08-11 12:27:35,light rain
425,Pokhara,28.2333,83.9833,78.26,88,69,2.37,NP,2022-08-11 12:27:36,moderate rain
426,Ixtapa,20.7,-105.2,78.22,88,100,0.0,MX,2022-08-11 12:27:36,overcast clouds
427,Tahoua,14.8888,5.2692,94.51,38,95,9.64,NE,2022-08-11 12:27:37,overcast clouds
428,Uvinza,-5.1036,30.3911,90.99,20,45,4.21,TZ,2022-08-11 12:27:37,scattered clouds
429,Khandbari,27.3747,87.2039,80.22,81,41,2.57,NP,2022-08-11 12:27:37,scattered clouds
430,Batangafo,7.3008,18.2833,80.91,74,100,6.58,CF,2022-08-11 12:27:38,light rain
431,Pangnirtung,66.1451,-65.7125,46.4,81,75,2.3,CA,2022-08-11 12:27:38,broken clouds
432,Obo,5.3998,26.4869,76.84,80,100,2.98,CF,2022-08-11 12:27:38,overcast clouds
433,Goderich,43.7501,-81.7165,67.91,75,17,17.31,CA,2022-08-11 12:27:39,few clouds
434,Pasighat,28.0667,95.3333,85.24,81,89,1.07,IN,2022-08-11 12:27:39,overcast clouds
435,Road Town,18.4167,-64.6167,84.29,74,40,14.97,VG,2022-08-11 12:27:39,scattered clouds
436,Yacuiba,-22.038,-63.6797,48.97,87,0,0.0,BO,2022-08-11 12:27:40,clear sky
437,Lensk,60.7253,114.9278,60.89,76,91,4.85,RU,2022-08-11 12:27:40,overcast clouds
438,Lac-Megantic,45.5834,-70.8823,56.52,85,97,3.42,CA,2022-08-11 12:27:41,overcast clouds
439,Havre,49.5833,0.3333,90.34,22,0,11.5,FR,2022-08-11 12:27:41,clear sky
440,Chumikan,54.7183,135.315,53.78,96,100,5.19,RU,2022-08-11 12:27:41,overcast clouds
441,Vangaindrano,-23.35,47.6,72.48,65,46,9.53,MG,2022-08-11 12:27:42,scattered clouds
442,Gurupa,-1.405,-51.64,82.31,69,89,3.87,BR,2022-08-11 12:27:42,overcast clouds
443,Teguldet,57.3064,88.1667,71.13,56,76,6.58,RU,2022-08-11 12:27:42,broken clouds
444,Uvat,59.1433,68.8953,77.36,38,32,5.3,RU,2022-08-11 12:27:43,scattered clouds
445,Ongandjera,-17.8833,15.0667,85.91,9,0,5.28,NA,2022-08-11 12:27:43,clear sky
446,Soyo,-6.1349,12.3689,75.63,68,67,10.45,AO,2022-08-11 12:27:43,broken clouds
447,Gangapur,26.4833,76.7167,88.23,62,100,15.08,IN,2022-08-11 12:27:44,overcast clouds
448,Yubari,43.0378,141.9578,63.1,96,100,6.64,JP,2022-08-11 12:27:44,moderate rain
449,Roebourne,-20.7833,117.1333,69.4,54,0,6.33,AU,2022-08-11 12:27:45,clear sky
450,Cortez,37.3489,-108.5859,62.04,77,0,0.0,US,2022-08-11 12:27:45,clear sky
451,San Policarpo,12.1791,125.5072,81.68,76,18,2.37,PH,2022-08-11 12:27:45,few clouds
452,Elko,41.0002,-115.5012,60.64,73,47,5.01,US,2022-08-11 12:27:46,scattered clouds
453,Canto Do Buriti,-8.11,-42.9444,84.33,31,3,6.69,BR,2022-08-11 12:27:46,clear sky
454,Dubai,25.2582,55.3047,105.73,37,0,10.36,AE,2022-08-11 12:23:03,clear sky
455,Edd,13.9297,41.6925,93.09,54,94,10.74,ER,2022-08-11 12:27:46,light rain
456,Bonthe,7.5264,-12.505,75.51,92,100,12.88,SL,2022-08-11 12:27:47,moderate rain
457,Thompson,55.7435,-97.8558,48.36,93,20,0.0,CA,2022-08-11 12:23:06,few clouds
458,Cooma,-36.2333,149.1333,44.37,75,40,17.27,AU,2022-08-11 12:27:47,light rain
459,Burns Lake,54.2331,-125.7533,55.45,66,0,2.75,CA,2022-08-11 12:23:54,clear sky
460,Luganville,-15.5333,167.1667,74.14,75,92,13.91,VU,2022-08-11 12:27:48,overcast clouds
461,Antalaha,-14.9003,50.2788,75.36,60,39,15.84,MG,2022-08-11 12:27:48,scattered clouds
462,Kamenka,51.3223,42.7678,88.65,28,97,7.2,RU,2022-08-11 12:27:49,overcast clouds
463,Lebu,-37.6167,-73.65,43.5,84,4,4.59,CL,2022-08-11 12:28:49,clear sky
464,Krutinka,56.0055,71.5113,71.71,64,33,8.16,RU,2022-08-11 12:28:49,scattered clouds
465,Allonnes,47.9674,0.1581,91.44,19,0,16.11,FR,2022-08-11 12:28:50,clear sky
466,Cap Malheureux,-19.9842,57.6142,72.46,64,46,13.0,MU,2022-08-11 12:28:50,scattered clouds
467,Butembo,0.15,29.2833,71.51,59,99,0.83,CD,2022-08-11 12:28:50,light rain
468,Birao,10.2849,22.7882,81.14,78,87,6.64,CF,2022-08-11 12:28:51,moderate rain
469,Oistins,13.0667,-59.5333,82.49,89,75,5.75,BB,2022-08-11 12:25:53,broken clouds
470,Abu Dhabi,24.4667,54.3667,102.31,59,90,10.36,AE,2022-08-11 12:24:40,overcast clouds
471,Hay River,60.8156,-115.7999,51.76,76,75,6.91,CA,2022-08-11 12:27:45,broken clouds
472,Gorgan,36.8387,54.4348,94.96,36,20,6.91,IR,2022-08-11 12:28:51,few clouds
473,Mogadishu,2.0371,45.3438,84.07,70,75,17.27,SO,2022-08-11 12:28:52,broken clouds
474,Mont-Dore,-22.2833,166.5833,71.01,99,48,6.82,NC,2022-08-11 12:28:52,scattered clouds
475,Sorland,67.667,12.6934,53.46,84,88,33.33,NO,2022-08-11 12:28:52,overcast clouds
476,Calamar,10.2511,-74.9146,78.91,86,99,1.72,CO,2022-08-11 12:28:53,overcast clouds
477,Teruel,40.6667,-0.6667,84.72,20,1,5.26,ES,2022-08-11 12:25:00,clear sky
478,Abha,18.2164,42.5053,89.42,61,40,17.27,SA,2022-08-11 12:28:53,scattered clouds
479,San Luis,-33.295,-66.3356,47.5,52,12,2.35,AR,2022-08-11 12:28:54,few clouds
480,Dudinka,69.4058,86.1778,54.63,48,68,3.89,RU,2022-08-11 12:28:54,broken clouds
481,Bubaque,11.2833,-15.8333,82.0,79,100,8.32,GW,2022-08-11 12:28:54,overcast clouds
482,Neiafu,-18.65,-173.9833,79.48,83,20,6.91,TO,2022-08-11 12:28:54,few clouds
483,Bilibino,68.0546,166.4372,58.98,80,100,1.39,RU,2022-08-11 12:28:55,overcast clouds
484,Blagoyevo,63.3667,47.9167,72.36,37,61,10.65,RU,2022-08-11 12:28:55,broken clouds
485,Marzuq,14.4,46.4667,86.32,48,97,12.24,YE,2022-08-11 12:28:55,overcast clouds
486,Madison,34.7334,-86.5667,73.44,97,100,5.01,US,2022-08-11 12:27:02,overcast clouds
487,Tura,25.5198,90.2201,79.12,84,60,3.58,IN,2022-08-11 12:28:56,broken clouds
488,Acapulco,16.8634,-99.8901,80.42,83,100,4.61,MX,2022-08-11 12:28:56,overcast clouds
489,Remanso,-9.6179,-42.0831,80.4,44,0,14.0,BR,2022-08-11 12:28:57,clear sky
490,Keti Bandar,24.1447,67.4497,80.51,94,100,10.87,PK,2022-08-11 12:28:57,overcast clouds
491,Vila Velha,-20.3297,-40.2925,78.75,53,0,5.75,BR,2022-08-11 12:24:54,clear sky
492,Chapais,49.7834,-74.8492,53.38,91,88,7.9,CA,2022-08-11 12:28:58,overcast clouds
493,Robertsport,6.7533,-11.3686,77.74,85,93,13.35,LR,2022-08-11 12:28:58,light rain
494,Tinskoy,56.1525,96.9161,69.69,64,30,3.91,RU,2022-08-11 12:28:58,scattered clouds
495,Kropotkin,45.4375,40.5756,99.45,23,24,12.48,RU,2022-08-11 12:28:59,few clouds
496,Henties Bay,-22.116,14.2845,60.71,72,1,12.46,NA,2022-08-11 12:28:59,clear sky
497,Mahuva,21.0914,71.7622,81.21,88,100,23.42,IN,2022-08-11 12:29:00,light rain
498,Llaillay,-32.85,-70.9667,51.24,65,100,2.28,CL,2022-08-11 12:29:00,overcast clouds
499,Dovolnoye,54.4958,79.6671,83.59,28,33,12.73,RU,2022-08-11 12:29:00,scattered clouds
500,Cherskiy,68.75,161.3,59.04,63,84,4.79,RU,2022-08-11 12:29:01,broken clouds
501,Kikwit,-5.041,18.8162,102.34,10,9,4.45,CD,2022-08-11 12:29:01,clear sky
502,Omboue,-1.5746,9.2618,79.92,64,93,10.51,GA,2022-08-11 12:29:01,overcast clouds
503,Northam,51.0333,-4.2167,87.26,35,0,8.14,GB,2022-08-11 12:29:02,clear sky
504,Shakhtinsk,49.71,72.5872,71.19,53,80,17.02,KZ,2022-08-11 12:29:02,broken clouds
505,Scottsbluff,41.8666,-103.6672,72.28,56,0,6.91,US,2022-08-11 12:29:03,clear sky
506,Medeiros Neto,-17.3739,-40.2206,81.19,37,85,9.44,BR,2022-08-11 12:27:59,overcast clouds
507,Vila Franca Do Campo,37.7167,-25.4333,75.61,61,40,8.63,PT,2022-08-11 12:29:03,scattered clouds
508,Sorong,-0.8833,131.25,79.66,80,84,4.12,ID,2022-08-11 12:29:03,broken clouds
509,Aransas Pass,27.9095,-97.15,83.01,86,0,6.91,US,2022-08-11 12:29:04,clear sky
510,Maldonado,-34.6667,-54.9167,50.23,74,0,6.04,UY,2022-08-11 12:30:04,clear sky
511,Torquay,50.4638,-3.5143,89.2,44,0,8.28,GB,2022-08-11 12:30:06,clear sky
512,Igarka,67.4667,86.5833,55.54,53,93,7.58,RU,2022-08-11 12:30:06,overcast clouds
513,Razdolnaya,45.3799,39.5557,87.58,23,93,5.57,RU,2022-08-11 12:30:07,overcast clouds
514,Temryuk,45.2722,37.3811,84.42,48,100,5.61,RU,2022-08-11 12:30:08,overcast clouds
515,Oriximina,-1.7656,-55.8661,87.1,44,100,2.15,BR,2022-08-11 12:30:08,overcast clouds
516,Mae Hong Son,19.3003,97.9685,84.34,84,75,2.3,TH,2022-08-11 12:30:08,broken clouds
517,Vuktyl,63.8567,57.3094,59.07,81,100,3.33,RU,2022-08-11 12:30:09,overcast clouds
518,Atar,20.5169,-13.0499,106.47,13,100,9.55,MR,2022-08-11 12:30:10,overcast clouds
519,Cancun,21.1743,-86.8466,75.13,94,75,0.0,MX,2022-08-11 12:27:00,broken clouds
520,Krasnoye,49.9145,24.6134,73.15,44,60,8.55,UA,2022-08-11 12:30:10,broken clouds
521,Quatre Cocos,-20.2078,57.7625,73.51,65,84,19.8,MU,2022-08-11 12:30:10,broken clouds
522,Swan Hill,-35.3378,143.5544,46.67,95,1,11.65,AU,2022-08-11 12:30:11,clear sky
523,San Andres,12.5847,-81.7006,82.42,83,40,8.05,CO,2022-08-11 12:27:00,scattered clouds
524,Molteno,-31.3968,26.3625,65.53,18,25,21.99,ZA,2022-08-11 12:30:12,scattered clouds
525,Kyshtovka,56.555,76.6271,73.08,68,8,6.6,RU,2022-08-11 12:30:12,clear sky
526,Wajid,3.8093,43.2471,82.83,49,99,22.3,SO,2022-08-11 12:30:13,overcast clouds
527,Manjacaze,-24.7117,33.8828,85.12,33,2,4.36,MZ,2022-08-11 12:30:13,clear sky
528,Immokalee,26.4187,-81.4173,80.55,94,0,0.0,US,2022-08-11 12:26:15,clear sky
529,Filadelfia,39.9523,-75.1638,75.61,94,75,6.91,US,2022-08-11 12:29:04,broken clouds
530,Kedrovyy,56.1667,91.8167,73.87,74,41,4.94,RU,2022-08-11 12:30:14,scattered clouds
531,Lazaro Cardenas,17.9583,-102.2,77.31,84,100,4.7,MX,2022-08-11 12:30:15,overcast clouds
532,Mitsamiouli,-11.3847,43.2844,84.49,61,40,6.91,KM,2022-08-11 12:30:15,scattered clouds
533,Norsup,-16.0667,167.3833,72.25,73,48,13.44,VU,2022-08-11 12:30:16,scattered clouds
534,Iralaya,15.0,-83.2333,81.12,82,13,11.83,HN,2022-08-11 12:30:17,few clouds
535,Kargil,34.5667,76.1,73.65,28,100,8.95,IN,2022-08-11 12:30:17,overcast clouds
536,Humaita,-7.5061,-63.0208,78.57,49,23,4.36,BR,2022-08-11 12:30:17,few clouds
537,Labuhan,-6.8844,112.2051,81.73,76,29,10.0,ID,2022-08-11 12:30:18,scattered clouds
538,Udachnyy,66.4167,112.4,50.45,100,100,15.21,RU,2022-08-11 12:30:18,light rain
539,Ullapool,57.8987,-5.1604,60.35,67,88,7.81,GB,2022-08-11 12:30:21,overcast clouds
540,Muisne,0.6,-80.0333,73.33,86,100,12.88,EC,2022-08-11 12:30:21,overcast clouds
541,Dargaville,-35.9333,173.8833,45.3,85,6,2.98,NZ,2022-08-11 12:30:22,clear sky
542,Kemin,42.7846,75.6892,72.59,51,89,7.38,KG,2022-08-11 12:30:22,overcast clouds
543,Coihaique,-45.5752,-72.0662,38.01,87,75,0.0,CL,2022-08-11 12:30:22,broken clouds
544,Rybachiy,48.7073,44.7449,98.46,12,20,13.27,RU,2022-08-11 12:30:23,few clouds
545,Alamogordo,32.8995,-105.9603,73.0,70,0,5.75,US,2022-08-11 12:30:23,clear sky
546,Kirensk,57.7853,108.1119,60.01,65,34,1.3,RU,2022-08-11 12:30:24,scattered clouds
547,Bend,44.0582,-121.3153,55.6,86,0,5.99,US,2022-08-11 12:30:23,clear sky
548,Yulara,-25.2406,130.9889,52.18,33,0,12.3,AU,2022-08-11 12:30:24,clear sky
549,Kaniama,-7.5667,24.1833,93.09,10,18,6.04,CD,2022-08-11 12:30:24,few clouds
550,Mirnyy,62.5353,113.9611,64.24,72,100,7.0,RU,2022-08-11 12:30:25,overcast clouds
551,Northfield,44.4583,-93.1616,66.15,85,0,1.99,US,2022-08-11 12:27:23,clear sky
552,Aromashevo,56.8602,68.6375,77.04,55,7,2.44,RU,2022-08-11 12:30:25,clear sky
553,Tual,-5.6667,132.75,80.28,81,90,12.08,ID,2022-08-11 12:31:26,overcast clouds
554,Yumen,40.2833,97.2,88.25,34,33,15.21,CN,2022-08-11 12:31:26,scattered clouds
555,Altay,47.8667,88.1167,77.23,27,0,7.16,CN,2022-08-11 12:31:26,clear sky
556,Gold Coast,-28.0,153.4333,62.01,95,100,6.91,AU,2022-08-11 12:31:27,overcast clouds
557,San Rafael,-34.6177,-68.3301,51.69,40,0,2.8,AR,2022-08-11 12:31:27,clear sky
558,Rocha,-34.4833,-54.3333,54.34,79,0,5.1,UY,2022-08-11 12:31:27,clear sky
559,Saint-Denis,48.9167,2.3333,91.29,26,0,13.8,FR,2022-08-11 12:31:28,clear sky
560,San Patricio,28.017,-97.5169,82.89,79,97,5.26,US,2022-08-11 12:31:28,overcast clouds
561,Verkhnetulomskiy,68.6073,31.7962,62.73,62,61,10.87,RU,2022-08-11 12:31:28,broken clouds
562,Merauke,-8.4667,140.3333,76.5,82,100,15.84,ID,2022-08-11 12:31:29,overcast clouds
563,Saint Simons,31.1352,-81.3901,80.64,87,0,6.91,US,2022-08-11 12:31:29,clear sky
564,Laibin,23.7,109.2667,77.97,89,100,3.04,CN,2022-08-11 12:31:29,overcast clouds
565,Champerico,14.3,-91.9167,73.94,77,95,3.8,GT,2022-08-11 12:31:30,overcast clouds
566,Zhangye,38.9342,100.4517,89.04,40,58,4.68,CN,2022-08-11 12:31:30,broken clouds
567,Vanavara,60.34,102.2797,57.2,96,99,4.14,RU,2022-08-11 12:31:31,light rain
568,Morondava,-20.2833,44.2833,77.22,65,0,13.15,MG,2022-08-11 12:31:31,clear sky
569,Neryungri,56.6709,124.6491,51.75,97,100,4.14,RU,2022-08-11 12:31:31,overcast clouds
570,Caravelas,-17.7125,-39.2481,82.54,41,96,4.54,BR,2022-08-11 12:31:32,overcast clouds
571,Nhulunbuy,-12.2333,136.7667,75.81,73,40,6.91,AU,2022-08-11 12:31:32,scattered clouds
572,Teguise,29.0605,-13.564,77.22,54,20,16.11,ES,2022-08-11 12:31:32,few clouds
573,Shepsi,44.0361,39.1489,81.9,68,8,11.72,RU,2022-08-11 12:31:33,clear sky
574,Moses Lake,47.1301,-119.2781,66.88,72,0,3.44,US,2022-08-11 12:31:33,clear sky
575,Salta,-24.7859,-65.4117,45.57,76,0,3.44,AR,2022-08-11 12:31:33,clear sky
576,Zatyshshya,47.3335,29.8733,81.09,43,100,11.07,UA,2022-08-11 12:31:34,overcast clouds
577,Hualmay,-11.0964,-77.6139,61.81,82,57,5.28,PE,2022-08-11 12:31:34,broken clouds
578,Am Timan,11.0297,20.2827,77.4,77,96,6.29,TD,2022-08-11 12:31:34,overcast clouds
579,Aketi,2.7388,23.7833,91.87,40,100,4.34,CD,2022-08-11 12:31:35,overcast clouds
580,Labytnangi,66.6572,66.4183,55.53,82,100,5.77,RU,2022-08-11 12:31:35,overcast clouds
581,Scarborough,54.2797,-0.4044,83.77,66,2,3.0,GB,2022-08-11 12:27:40,clear sky
582,Kadoma,34.7333,135.5833,87.6,69,75,9.22,JP,2022-08-11 12:31:35,broken clouds
583,Effium,6.6292,8.0593,73.74,96,100,4.65,NG,2022-08-11 12:31:36,heavy intensity rain
584,Dromolaxia,34.8761,33.586,99.64,58,20,20.71,CY,2022-08-11 12:31:36,few clouds
585,Rio Pardo De Minas,-15.6097,-42.5397,82.44,33,73,3.49,BR,2022-08-11 12:31:36,broken clouds
586,Saint-Louis,16.3333,-15.0,91.04,40,45,10.67,SN,2022-08-11 12:31:37,scattered clouds
587,Saint Anthony,45.0205,-93.218,66.92,77,0,5.75,US,2022-08-11 12:31:37,clear sky
588,Palmer,42.1584,-72.3287,71.85,91,75,0.0,US,2022-08-11 12:31:37,smoke
589,Bolobo,-2.1667,16.2333,93.02,30,95,3.91,CD,2022-08-11 12:31:38,overcast clouds
590,Santa Isabel Do Rio Negro,-0.4139,-65.0192,80.04,77,30,2.62,BR,2022-08-11 12:31:38,scattered clouds
591,Yartsevo,55.0667,32.6964,74.59,39,0,5.57,RU,2022-08-11 12:31:38,clear sky
592,Bowen,-20.0167,148.2333,68.22,73,100,14.67,AU,2022-08-11 12:31:39,overcast clouds
593,Punta Cardon,11.6581,-70.215,81.86,70,42,13.89,VE,2022-08-11 12:31:39,scattered clouds
594,Deputatskiy,69.3,139.9,51.03,87,100,3.89,RU,2022-08-11 12:31:40,overcast clouds
595,Sheltozero,61.3667,35.3667,70.34,51,100,16.67,RU,2022-08-11 12:31:40,overcast clouds
596,Sambava,-14.2667,50.1667,73.89,68,2,17.36,MG,2022-08-11 12:31:40,clear sky
597,Conde,-7.2597,-34.9075,76.46,88,75,6.91,BR,2022-08-11 12:31:41,broken clouds
598,Ahipara,-35.1667,173.1667,48.43,82,8,7.47,NZ,2022-08-11 12:31:41,clear sky
599,Talaya,61.3833,152.75,54.63,85,100,7.34,RU,2022-08-11 12:31:41,overcast clouds
600,Liverpool,53.4106,-2.9779,89.74,46,0,3.44,GB,2022-08-11 12:28:12,clear sky
601,Yar-Sale,66.8333,70.8333,60.13,62,100,10.0,RU,2022-08-11 12:31:41,overcast clouds
602,Kaeo,-35.1,173.7833,41.32,92,9,6.17,NZ,2022-08-11 12:32:42,clear sky
603,Dingle,10.9995,122.6711,77.31,88,62,1.81,PH,2022-08-11 12:32:42,moderate rain
604,Leshukonskoye,64.8989,45.7622,72.88,47,100,11.92,RU,2022-08-11 12:32:43,overcast clouds
605,Kaohsiung,22.6163,120.3133,80.04,93,75,8.05,TW,2022-08-11 12:32:43,shower rain
606,Naze,28.3667,129.4833,77.92,75,100,1.45,JP,2022-08-11 12:32:43,overcast clouds
607,Berlevag,70.8578,29.0864,58.95,67,75,23.02,NO,2022-08-11 12:32:44,broken clouds
608,Valdivia,-39.8142,-73.2459,41.09,91,97,1.7,CL,2022-08-11 12:31:22,overcast clouds
609,Nenjiang,49.1833,125.2167,57.33,87,15,3.94,CN,2022-08-11 12:32:44,few clouds
610,Kudahuvadhoo,2.6708,72.8944,82.67,72,12,4.72,MV,2022-08-11 12:32:45,few clouds
611,Gallup,35.5281,-108.7426,57.96,88,75,3.44,US,2022-08-11 12:32:45,broken clouds
612,Lahaina,20.8783,-156.6825,78.8,82,44,11.48,US,2022-08-11 12:29:57,scattered clouds
613,Cherusti,55.5498,40.0107,76.53,34,0,4.34,RU,2022-08-11 12:32:45,clear sky
614,Carutapera,-1.195,-46.02,82.2,70,88,8.25,BR,2022-08-11 12:27:47,overcast clouds
615,Kalevala,65.2,31.1667,65.97,72,94,14.43,RU,2022-08-11 12:32:46,overcast clouds
616,Kemi,65.8596,24.8228,65.97,59,0,13.8,FI,2022-08-11 12:32:46,clear sky
617,Meulaboh,4.1363,96.1285,79.75,77,99,2.39,ID,2022-08-11 12:32:47,overcast clouds
618,Roma,43.2128,-75.4557,69.82,91,0,5.75,US,2022-08-11 12:32:47,clear sky
619,Molchanovo,57.5817,83.7692,66.38,62,0,7.76,RU,2022-08-11 12:32:48,clear sky
620,Vysotsk,60.6288,28.5705,72.14,65,96,18.75,RU,2022-08-11 12:32:48,overcast clouds
621,Ayagoz,47.9714,80.4392,80.26,23,5,15.35,KZ,2022-08-11 12:32:48,clear sky
622,Banff,51.1762,-115.5698,64.76,87,24,4.38,CA,2022-08-11 12:32:49,few clouds
623,Mantua,45.1667,10.7833,90.34,37,96,1.99,IT,2022-08-11 12:32:49,overcast clouds
624,Sorochinsk,52.4338,53.1583,87.94,32,92,11.97,RU,2022-08-11 12:32:49,overcast clouds
625,Portland,45.5234,-122.6762,60.94,91,0,3.44,US,2022-08-11 12:30:42,clear sky
626,Kloulklubed,7.0419,134.2556,77.5,67,100,1.77,PW,2022-08-11 12:32:50,overcast clouds
627,Alyangula,-13.8483,136.4192,71.13,86,15,9.24,AU,2022-08-11 12:32:50,few clouds
628,Kununurra,-15.7667,128.7333,67.98,64,7,0.0,AU,2022-08-11 12:32:51,clear sky
629,Baykit,61.67,96.37,58.19,57,39,6.58,RU,2022-08-11 12:32:18,scattered clouds
630,Ahuimanu,21.4447,-157.8378,78.51,78,75,16.11,US,2022-08-11 12:32:51,broken clouds
631,Loikaw,19.6742,97.2094,70.63,93,100,4.94,MM,2022-08-11 12:32:51,overcast clouds
632,Sur,22.5667,59.5289,92.95,56,80,3.15,OM,2022-08-11 12:32:52,broken clouds
633,Namtsy,62.7161,129.6658,63.41,79,100,5.08,RU,2022-08-11 12:32:52,overcast clouds
634,Dwarka,22.2394,68.9678,84.6,81,100,9.55,IN,2022-08-11 12:32:53,moderate rain
635,Haines Junction,60.7522,-137.5108,45.97,95,100,0.96,CA,2022-08-11 12:32:53,overcast clouds
636,Waipawa,-41.4122,175.5153,40.08,86,100,1.5,NZ,2022-08-11 12:32:53,overcast clouds
637,Joshimath,30.5667,79.5667,72.54,84,54,0.85,IN,2022-08-11 12:32:54,broken clouds
638,Aitape,-3.1374,142.3475,78.17,85,100,2.15,PG,2022-08-11 12:32:54,overcast clouds
639,Kimberley,-28.7323,24.7623,80.29,12,0,6.91,ZA,2022-08-11 12:32:55,clear sky
640,Latehar,23.75,84.5,76.62,88,23,6.53,IN,2022-08-11 12:32:55,few clouds
641,Old Town,50.087,14.4202,80.53,41,0,9.22,CZ,2022-08-11 12:32:56,clear sky
642,Yuli,9.6989,10.2744,73.94,87,100,2.95,NG,2022-08-11 12:32:56,overcast clouds
643,Batagay-Alyta,67.8006,130.4114,56.28,75,100,12.12,RU,2022-08-11 12:32:56,overcast clouds
644,Dongsheng,39.8161,109.9776,78.64,52,0,7.78,CN,2022-08-11 12:32:57,clear sky
645,Buala,-8.145,159.5921,79.32,82,52,4.09,SB,2022-08-11 12:32:57,light rain
646,Amapa,1.0,-52.0,85.82,56,15,1.54,BR,2022-08-11 12:33:57,few clouds
647,Athabasca,54.7169,-113.2854,60.13,86,4,3.15,CA,2022-08-11 12:33:58,clear sky
648,Gimli,50.6336,-96.9907,58.03,68,90,5.5,CA,2022-08-11 12:33:58,overcast clouds
649,Kismayo,-0.3582,42.5454,78.31,68,37,18.43,SO,2022-08-11 12:33:58,scattered clouds
650,Kaduna,10.5222,7.4383,68.49,94,100,2.64,NG,2022-08-11 12:33:59,moderate rain
651,Ohrid,41.1172,20.8019,82.29,34,40,3.44,MK,2022-08-11 12:33:59,scattered clouds
652,Faya,18.3851,42.4509,89.71,46,99,6.49,SA,2022-08-11 12:33:59,overcast clouds
653,Hailey,43.5196,-114.3153,64.89,70,0,11.01,US,2022-08-11 12:32:18,clear sky
654,Teahupoo,-17.8333,-149.2667,67.96,75,2,11.25,PF,2022-08-11 12:34:00,clear sky
655,Harnosand,62.6323,17.9379,71.62,55,100,9.17,SE,2022-08-11 12:34:00,overcast clouds
656,Noumea,-22.2763,166.4572,71.01,99,100,11.01,NC,2022-08-11 12:34:00,overcast clouds
657,Xining,36.6167,101.7667,73.15,74,91,4.74,CN,2022-08-11 12:29:52,overcast clouds
658,Si Satchanalai,17.5169,99.7598,78.24,89,100,0.85,TH,2022-08-11 12:34:01,light rain
659,Killybegs,54.6333,-8.45,65.91,57,0,5.08,IE,2022-08-11 12:34:01,clear sky
660,Alta Floresta,-9.8756,-56.0861,69.62,52,0,5.75,BR,2022-08-11 12:34:02,clear sky
661,Planeta Rica,8.4147,-75.5883,78.04,89,81,3.27,CO,2022-08-11 12:34:02,broken clouds
662,Qianan,44.9932,124.0581,69.76,60,100,2.06,CN,2022-08-11 12:34:02,overcast clouds
663,Monrovia,6.3005,-10.7969,78.57,78,92,14.32,LR,2022-08-11 12:34:03,light rain
664,Dabat,12.9842,37.765,55.87,89,100,2.89,ET,2022-08-11 12:34:03,light rain
665,Mogoytuy,51.2833,114.9167,60.15,63,11,1.79,RU,2022-08-11 12:34:04,few clouds
666,Naustdal,61.509,5.7168,62.13,92,100,3.98,NO,2022-08-11 12:34:04,light rain
667,Ha Tinh,18.3333,105.9,79.34,89,100,2.59,VN,2022-08-11 12:34:04,overcast clouds
668,Santa Cruz De Tenerife,28.4682,-16.2546,78.4,64,20,17.27,ES,2022-08-11 12:34:05,few clouds
669,Codrington,-38.2667,141.9667,47.03,66,100,6.53,AU,2022-08-11 12:34:05,overcast clouds
670,Lebork,54.5392,17.7501,80.44,34,26,5.88,PL,2022-08-11 12:34:05,scattered clouds
671,Boa Vista,2.8197,-60.6733,80.58,78,40,2.3,BR,2022-08-11 12:32:27,scattered clouds
672,Krasnokamensk,50.0979,118.0369,59.14,66,12,3.29,RU,2022-08-11 12:34:06,few clouds
673,Dunedin,-45.8742,170.5036,39.79,77,57,1.99,NZ,2022-08-11 12:34:06,broken clouds
674,Hibbing,47.4272,-92.9377,53.38,84,0,3.44,US,2022-08-11 12:32:46,clear sky
675,Richards Bay,-28.783,32.0377,82.15,45,4,12.26,ZA,2022-08-11 12:34:07,clear sky
676,Rauma,61.1272,21.5113,68.04,75,100,5.86,FI,2022-08-11 12:34:07,overcast clouds
677,Plettenberg Bay,-34.0527,23.3716,62.76,70,82,8.77,ZA,2022-08-11 12:34:07,broken clouds
678,Primorsk,46.7348,36.3443,87.22,34,100,8.39,UA,2022-08-11 12:34:08,overcast clouds
679,Sandwick,60.0,-1.25,55.22,100,75,11.5,GB,2022-08-11 12:34:08,light rain
680,Bull Savanna,17.8868,-77.5902,79.05,72,0,4.21,JM,2022-08-11 12:34:08,clear sky
681,Rorvik,64.8621,11.2373,58.98,77,75,23.02,NO,2022-08-11 12:34:09,broken clouds
682,Venado Tuerto,-33.7456,-61.9688,48.76,67,0,13.31,AR,2022-08-11 12:34:09,clear sky
683,Madhoganj,27.1167,80.15,90.18,54,52,15.08,IN,2022-08-11 12:34:09,broken clouds
684,Doctor Cecilio Baez,-25.05,-56.3167,60.03,66,4,5.21,PY,2022-08-11 12:34:10,clear sky
685,Thunder Bay,48.4001,-89.3168,51.71,93,0,2.3,CA,2022-08-11 12:32:46,clear sky
686,Port Moresby,-9.4431,147.1797,78.22,73,20,14.97,PG,2022-08-11 12:34:10,few clouds
687,Nadym,65.5333,72.5167,63.43,54,100,6.82,RU,2022-08-11 12:34:11,overcast clouds
688,Antropovo,58.3988,43.0066,71.98,38,56,6.31,RU,2022-08-11 12:34:11,broken clouds
